City,Status,Lat,Long
Paris,Lived,48.6566,2.3522
Beijing,Visited,39.9042,116.4074
Buenos Aires,Visited,-34.6037,-58.3816
Bogota,Visited,4.711,-74.0721
Los Angeles,Lived,34.0522,-118.2437
Nashville,Lived,36.1627,-86.7816
Sydney,To visit,-33.8688,151.2093
Ho Chi Minh,To visit,10.8231,106.6297
Johannesburg,To visit,-26.195246,28.031088
